{
    "cities": [
        {
            "full_name": "New York",
            "latitude": 40.6943,
            "longitude": -73.9249
        },
        {
            "full_name": "London",
            "latitude": 51.5072,
            "longitude": -0.1275

        },
        {
            "full_name": "Tokyo",
            "latitude": 35.6897,
            "longitude": 139.692
        },
        {
            "full_name": "Paris",
            "latitude": 48.8566,
            "longitude": 2.3522
        },
        {
            "full_name": "Berlin",
            "latitude": 52.5167,
            "longitude": 13.3833
        },
        {
            "full_name": "Sydney",
            "latitude": -33.865,
            "longitude": 151.209
        },
        {
            "full_name": "Toronto",
            "latitude": 43.7417,
            "longitude": -79.3733
        },
        {
            "full_name": "Mumbai",
            "latitude": 18.9667,
            "longitude": 72.8333
        },
        {
            "full_name": "Beijing",
            "latitude": 39.905,
            "longitude": 116.391
        },
        {
            "full_name": "Sao Paulo",
            "latitude": -23.5504,
            "longitude": -46.6339
        },
        {
            "full_name": "Moscow",
            "latitude": 55.7558,
            "longitude": 37.6178
        },
        {
            "full_name": "Dubai",
            "latitude": 25.2697,
            "longitude": 55.3094
        },
        {
            "full_name": "Singapore",
            "latitude": 1.3,
            "longitude": 103.8
        },
        {
            "full_name": "Los Angeles",
            "latitude": 34.1139,
            "longitude": -118.407
        },
        {
            "full_name": "Chicago",
            "latitude": 41.8373,
            "longitude": -87.6862
        },
        {
            "full_name": "Shanghai",
            "latitude": 31.1667,
            "longitude": 121.467
        },
        {
            "full_name": "Mexico City",
            "latitude": 19.4333,
            "longitude": -99.1333
        },
        {
            "full_name": "Hong Kong",
            "latitude": 22.305,
            "longitude": 114.185
        },
        {
            "full_name": "Bangkok",
            "latitude": 13.75,
            "longitude": 100.517
        },
        {
            "full_name": "Istanbul",
            "latitude": 41.01,
            "longitude": 28.9603
        },
        {
            "full_name": "Johannesburg",
            "latitude": -26.2044,
            "longitude": 28.0416
        },
        {
            "full_name": "Seoul",
            "latitude": 37.5833,
            "longitude": 127.0
        },
        {
            "full_name": "Madrid",
            "latitude": 40.4189,
            "longitude": -3.6919
        },
        {
            "full_name": "Rome",
            "latitude": 41.8931,
            "longitude": 12.4828
        },
        {
            "full_name": "Amsterdam",
            "latitude": 52.35,
            "longitude": 4.9166
        },
        {
            "full_name": "Vancouver",
            "latitude": 49.25,
            "longitude": -123.1
        },
        {
            "full_name": "San Francisco",
            "latitude": 37.7562,
            "longitude": -122.443
        },
        {
            "full_name": "Melbourne",
            "latitude": -37.8136,
            "longitude": 144.963
        },
        {
            "full_name": "Cairo",
            "latitude": 30.0561,
            "longitude": 31.2394
        },
        {
            "full_name": "Riyadh",
            "latitude": 24.65,
            "longitude": 46.71
        },
        {
            "full_name": "Jakarta",
            "latitude": -6.2146,
            "longitude": 106.845
        },
        {
            "full_name": "Lagos",
            "latitude": 6.45,
            "longitude": 3.4
        },
        {
            "full_name": "Buenos Aires",
            "latitude": -34.5997,
            "longitude": -58.3819
        },
        {
            "full_name": "Delhi",
            "latitude": 28.66,
            "longitude": 77.23
        },
        {
            "full_name": "Athens",
            "latitude": 37.9794,
            "longitude": 23.7161
        },
        {
            "full_name": "Lisbon",
            "latitude": 38.7452,
            "longitude": -9.1604
        },
        {
            "full_name": "Stockholm",
            "latitude": 59.3294,
            "longitude": 18.0686
        },
        {
            "full_name": "Copenhagen",
            "latitude": 55.6786,
            "longitude": 12.5635
        },
        {
            "full_name": "Oslo",
            "latitude": 59.9111,
            "longitude": 10.7528
        },
        {
            "full_name": "Helsinki",
            "latitude": 60.1756,
            "longitude": 24.9342
        },
        {
            "full_name": "Zurich",
            "latitude": 47.3786,
            "longitude": 8.54
        },
        {
            "full_name": "Vienna",
            "latitude": 48.2083,
            "longitude": 16.3731
        },
        {
            "full_name": "Brussels",
            "latitude": 50.8467,
            "longitude": 4.3517
        },
        {
            "full_name": "Warsaw",
            "latitude": 52.2167,
            "longitude": 21.0333
        },
        {
            "full_name": "Prague",
            "latitude": 50.0833,
            "longitude": 14.4167
        },
        {
            "full_name": "Budapest",
            "latitude": 47.4983,
            "longitude": 19.0408
        },
        {
            "full_name": "Dublin",
            "latitude": 53.3425,
            "longitude": -6.2658
        },
        {
            "full_name": "Manila",
            "latitude": 14.5958,
            "longitude": 120.977
        },
        {
            "full_name": "Karachi",
            "latitude": 24.86,
            "longitude": 67.01
        },
        {
            "full_name": "Tehran",
            "latitude": 35.7,
            "longitude": 51.4167
        }
    ]
}
